---
server: true
markdown: maruku
auto: true
cities:
- atlanta:
    name: Atlanta, GA
    latitude: 33.7489954
    longitude: -84.3879824
- austin:
    name: Austin, TX
    latitude: 30.267153
    longitude: -97.7430608
- baltimore:
    name: Baltimore, MD
    latitude: 39.281633
    longitude: -76.5811712
- beijing:
    name: Beijing, China
    latitude: 39.90403
    longitude: 116.407526
- birmingham:
    name: Birmingham, AL
    latitude: 33.5206608
    longitude: -86.80248999999999
- boston:
    name: Boston, MA
    latitude: 42.3584308
    longitude: -71.0597732
- buffalo:
    name: Buffalo, NY
    latitude: 42.88644679999999
    longitude: -78.8783689
- chicago:
    name: Chicago, IL
    latitude: 41.8781136
    longitude: -87.6297982
- columbia:
    name: Columbia, SC
    latitude: 34.0007104
    longitude: -81.0348144
- columbus:
    name: Columbus, OH
    latitude: 39.9611755
    longitude: -82.99879419999999
- dayton:
    name: Dayton, OH
    latitude: 39.7589478
    longitude: -84.1916069
- fortwayne:
    name: Fort Wayne, IN
    latitude: 41.079273
    longitude: -85.1393513
- green_bay:
    name: Green Bay, WI
    latitude: 44.51915899999999
    longitude: -88.019826
- honolulu:
    name: Honolulu, HI
    latitude: 21.3069444
    longitude: -157.8583333
- houghton:
    name: Houghton, MI
    latitude: 47.12113309999999
    longitude: -88.5694182
- iowa_city:
    name: Iowa City, IA
    latitude: 41.6611277
    longitude: -91.5301683
- istanbul:
    name: Istanbul,Turkey
    latitude: 41.00527
    longitude: 28.97696
- jersey_city:
    name: Jersey City, NJ
    latitude: 40.72815749999999
    longitude: -74.0776417
- kontich:
    name: Kontich, Belgium
    latitude: 51.1398236
    longitude: 4.4380337
- logan:
    name: Logan, UT
    latitude: 41.7369803
    longitude: -111.8338359
- louisville:
    name: Louisville, KY
    latitude: 38.253777
    longitude: -85.74844399999999
- miami:
    name: Miami, FL
    latitude: 25.7889689
    longitude: -80.2264393
- new_york:
    name: New York City, NY
    latitude: 40.7143528
    longitude: -74.00597309999999
- newcastle_upon_tyne:
    name: Newcastle upon Tyne, UK
    latitude: 54.969488
    longitude: -1.618375
- pittsburgh:
    name: Pittsburgh, PA
    latitude: 40.44062479999999
    longitude: -79.9958864
- providence:
    name: Providence, RI
    latitude: 41.8239891
    longitude: -71.4128343
- rochester:
    name: Rochester, NY
    latitude: 43.1621834
    longitude: -77.620859
- santa_barbara:
    name: Santa Barbara, CA
    latitude: 34.431903
    longitude: -119.848416
- taipei:
    name: Taipei, Taiwan
    latitude: 25.04684
    longitude: 121.51737
- toledo:
    name: Toledo, OH
    latitude: 41.6639
    longitude: -83.5553
- toronto:
    name: Toronto, ON
    latitude: 43.653226
    longitude: -79.3831843
- tulsa:
    name: Tulsa, OK
    latitude: 36.1539
    longitude: -95.9925
- vancouver:
    name: Vancouver, BC
    latitude: 49.261226
    longitude: -123.1139268
- waterloo:
    name: Waterloo, ON
    latitude: 43.4642578
    longitude: -80.5204096
- windsor:
    name: Windsor, ON
    latitude: 42.3183446
    longitude: -83.0342423
